[
  {
    "name": "โรงพยาบาลสิชล",
    "latitude": 9.003981,
    "longitude": 99.903917,
    "phone": "075 536 336"
  },
  {
    "name": "โรงพยาบาลทุ่งสง",
    "latitude": 8.163833,
    "longitude": 99.679992,
    "phone": "075 410 100"
  },
  {
    "name": "โรงพยาบาลขนอม",
    "latitude": 9.204984,
    "longitude": 99.85945,
    "phone": "075 529 033"
  },
  {
    "name": "โรงพยาบาลนบพิตำ",
    "latitude": 8.716245,
    "longitude": 99.751485,
    "phone": "075 355 676"
  },
  {
    "name": "โรงพยาบาลขนอม",
    "latitude": 9.204984,
    "longitude": 99.85945,
    "phone": "075 529 033"
  },
  {
    "name": "โรงพยาบาลท่าศาลา",
    "latitude": 8.660173,
    "longitude": 99.923315,
    "phone": "075 521 333"
  },
  {
    "name": "โรงพยาบาลพิปูน",
    "latitude": 8.540088,
    "longitude": 99.608917,
    "phone": "075 499 026"
  },
  {
    "name": "โรงพยาบาลพรหมคีรี",
    "latitude": 8.522962,
    "longitude": 99.82205,
    "phone": "075 396 123"
  },
  {
    "name": "โรงพยาบาลถ้ำพรรณรา",
    "latitude": 8.425893,
    "longitude": 99.372375,
    "phone": "075 306 240"
  },
  {
    "name": "โรงพยาบาลสมเด็จพระยุพราชฉวาง",
    "latitude": 8.438853,
    "longitude": 99.524048,
    "phone": "075 481 113"
  },
  {
    "name": "โรงพยาบาลทุ่งใหญ่",
    "latitude": 8.317524,
    "longitude": 99.360557,
    "phone": "075 489 080"
  },
  {
    "name": "โรงพยาบาลพ่อท่านคล้ายวาจาสิทธิ์",
    "latitude": 8.373424,
    "longitude": 99.559358,
    "phone": "075 466 878"
  },
  {
    "name": "โรงพยาบาลลานสกา",
    "latitude": 8.364988,
    "longitude": 99.800116,
    "phone": "075 391 023"
  },
  {
    "name": "โรงพยาบาลปากพนัง",
    "latitude": 8.358693,
    "longitude": 100.198134,
    "phone": "075 517 990"
  },
  {
    "name": "โรงพยาบาลนาบอน",
    "latitude": 8.259378,
    "longitude": 99.582825,
    "phone": "075 491 332"
  },
  {
    "name": "โรงพยาบาลร่อนพิบูลย์",
    "latitude": 8.171194,
    "longitude": 99.865194,
    "phone": "075 449 120"
  },
  {
    "name": "โรงพยาบาลบางขัน",
    "latitude": 8.023333,
    "longitude": 99.49283,
    "phone": "075 371 025"
  },
  {
    "name": "โรงพยาบาลจุฬาภรณ์ นครศรีธรรมราช",
    "latitude": 8.081208,
    "longitude": 99.831595,
    "phone": "075 355 402"
  },
  {
    "name": "โรงพยาบาลชะอวด",
    "latitude": 7.993356,
    "longitude": 99.9844,
    "phone": "075 381 011"
  },
  {
    "name": "โรงพยาบาลเชียรใหญ่",
    "latitude": 8.161965,
    "longitude": 100.137359,
    "phone": "075 386 256"
  },
  {
    "name": "โรงพยาบาลหัวไทร",
    "latitude": 8.047757,
    "longitude": 100.286229,
    "phone": "075 389 511"
  },
  {
    "name": "โรงพยาบาลมหาราชนครศรีธรรมราช",
    "latitude": 8.390988,
    "longitude": 99.971582,
    "phone": "075 340 250"
  },
  {
    "name": "โรงพยาบาลระโนด",
    "latitude": 7.783464,
    "longitude": 100.336065,
    "phone": "074 392 932"
  },
  {
    "name": "โรงพยาบาลกระแสสินธุ์",
    "latitude": 7.620578,
    "longitude": 100.329619,
    "phone": "074 399 899"
  },
  {
    "name": "โรงพยาบาลสทิงพระ",
    "latitude": 7.456146,
    "longitude": 100.444444,
    "phone": "074397112"
  },
  {
    "name": "โรงพยาบาลรัตภูมิ",
    "latitude": 7.132595,
    "longitude": 100.253385,
    "phone": "074 395 234"
  },
  {
    "name": "โรงพยาบาลควนเนียง",
    "latitude": 7.195178,
    "longitude": 100.346925,
    "phone": "074 346 686"
  },
  {
    "name": "โรงพยาบาลสิงหนคร",
    "latitude": 7.234225,
    "longitude": 100.529681,
    "phone": 74332902
  },
  {
    "name": "โรงพยาบาลบางกล่ำ",
    "latitude": 7.092746,
    "longitude": 100.409001,
    "phone": "074 328 221"
  },
  {
    "name": "โรงพยาบาลสงขลา",
    "latitude": 7.14212,
    "longitude": 100.565253,
    "phone": "074 338 100"
  },
  {
    "name": "โรงพยาบาลหาดใหญ่",
    "latitude": 7.016594,
    "longitude": 100.466936,
    "phone": "074 273 100"
  },
  {
    "name": "โรงพยาบาลคลองหอยโข่ง",
    "latitude": 6.905124,
    "longitude": 100.396716,
    "phone": "074 251 789"
  },
  {
    "name": "โรงพยาบาลนาหม่อม",
    "latitude": 6.984549,
    "longitude": 100.585921,
    "phone": "074 593 774"
  },
  {
    "name": "โรงพยาบาลจะนะ",
    "latitude": 6.914841,
    "longitude": 100.739958,
    "phone": "074 207 070"
  },
  {
    "name": "โรงพยาบาลเทพา",
    "latitude": 6.804372,
    "longitude": 100.95436,
    "phone": "074 376 359"
  },
  {
    "name": "โรงพยาบาลสะบ้าย้อย",
    "latitude": 6.62385,
    "longitude": 100.9481,
    "phone": "074 377 101"
  },
  {
    "name": "โรงพยาบาลสมเด็จพระบรมราชินีนาถ ณ อำเภอนาทวี",
    "latitude": 6.729179,
    "longitude": 100.6937,
    "phone": "074 341 701"
  },
  {
    "name": "โรงพยาบาลสะเดา",
    "latitude": 6.635654,
    "longitude": 100.407163,
    "phone": "074 379 995"
  },
  {
    "name": "โรงพยาบาลปาดังเบซาร์",
    "latitude": 6.651835,
    "longitude": 100.341477,
    "phone": "074 521 011"
  },
  {
    "name": "โรงพยาบาลเกาะพงัน",
    "latitude": 9.735987,
    "longitude": 99.991184,
    "phone": "077 377 034"
  },
  {
    "name": "โรงพยาบาลเกาะสมุย",
    "latitude": 9.521738,
    "longitude": 99.935617,
    "phone": "077 913 200"
  },
  {
    "name": "โรงพยาบาลชัยบุรี",
    "latitude": 8.46956,
    "longitude": 99.080634,
    "phone": "077 367 075"
  },
  {
    "name": "โรงพยาบาลพระแสง",
    "latitude": 8.57237,
    "longitude": 99.243143,
    "phone": "077 369 098"
  },
  {
    "name": "โรงพยาบาลสมเด็จพระยุพราชเวียงสระ",
    "latitude": 8.637283,
    "longitude": 99.371318,
    "phone": "077 361 283"
  },
  {
    "name": "โรงพยาบาลบ้านนาสาร",
    "latitude": 8.841974,
    "longitude": 99.367813,
    "phone": "077 341 415"
  },
  {
    "name": "โรงพยาบาลบ้านนาเดิม",
    "latitude": 8.89246,
    "longitude": 99.305637,
    "phone": "077 359 018"
  },
  {
    "name": "โรงพยาบาลเคียนซา",
    "latitude": 8.834707,
    "longitude": 99.160825,
    "phone": "077 266 180"
  },
  {
    "name": "โรงพยาบาลบ้านตาขุน",
    "latitude": 8.914798,
    "longitude": 98.890112,
    "phone": "077 397 374"
  },
  {
    "name": "โรงพยาบาลพนม",
    "latitude": 8.865155,
    "longitude": 98.818815,
    "phone": "077 399 084"
  },
  {
    "name": "โรงพยาบาลคีรีรัฐนิคม",
    "latitude": 9.021235,
    "longitude": 98.972704,
    "phone": "077 265 177"
  },
  {
    "name": "โรงพยาบาลท่าโรงช้าง",
    "latitude": 9.056612,
    "longitude": 99.172546,
    "phone": "077 357 167"
  },
  {
    "name": "โรงพยาบาลพุนพิน",
    "latitude": 9.105578,
    "longitude": 99.232203,
    "phone": "077 311 100"
  },
  {
    "name": "โรงพยาบาลสุราษฎร์ธานี",
    "latitude": 9.123412,
    "longitude": 99.310402,
    "phone": "077 915 600"
  },
  {
    "name": "โรงพยาบาลกาญจนดิษฐ์",
    "latitude": 9.161188,
    "longitude": 99.493171,
    "phone": "077 379 131"
  },
  {
    "name": "โรงพยาบาลดอนสัก",
    "latitude": 9.318425,
    "longitude": 99.694536,
    "phone": "077 371 401"
  },
  {
    "name": "โรงพยาบาลท่าฉาง",
    "latitude": 9.25805,
    "longitude": 99.187875,
    "phone": "077 389 111"
  },
  {
    "name": "โรงพยาบาลวิภาวดี",
    "latitude": 9.24166,
    "longitude": 98.979836,
    "phone": "077 292 144"
  },
  {
    "name": "โรงพยาบาลไชยา",
    "latitude": 9.386711,
    "longitude": 99.207004,
    "phone": "077 431 103"
  },
  {
    "name": "โรงพยาบาลท่าชนะ",
    "latitude": 9.598253,
    "longitude": 99.166181,
    "phone": "077 381 167"
  },
  {
    "name": "โรงพยาบาลบาเจาะ",
    "latitude": 6.503671,
    "longitude": 101.660507,
    "phone": "073 599 085"
  },
  {
    "name": "โรงพยาบาลรือเสาะ",
    "latitude": 6.377667,
    "longitude": 101.508737,
    "phone": "073 571 191"
  },
  {
    "name": "โรงพยาบาลยี่งอเฉลิมพระเกียรติ 80 พรรษา",
    "latitude": 6.393074,
    "longitude": 101.692463,
    "phone": "073 591 454"
  },
  {
    "name": "โรงพยาบาลนราธิวาสราชนครินทร์",
    "latitude": 6.414323,
    "longitude": 101.823975,
    "phone": "073 510 997"
  },
  {
    "name": "โรงพยาบาลศรีสาคร",
    "latitude": 6.240274,
    "longitude": 101.498807,
    "phone": "073 561 145"
  },
  {
    "name": "โรงพยาบาลระแงะ",
    "latitude": 6.297085,
    "longitude": 101.727315,
    "phone": "073 671 287"
  },
  {
    "name": "โรงพยาบาลเจาะไอร้อง",
    "latitude": 6.222212,
    "longitude": 101.808559,
    "phone": "073 544 073"
  },
  {
    "name": "โรงพยาบาลตากใบ",
    "latitude": 6.250262,
    "longitude": 102.046659,
    "phone": "073 581 200"
  },
  {
    "name": "โรงพยาบาลจะแนะ",
    "latitude": 6.130628,
    "longitude": 101.696656,
    "phone": "073 543 569"
  },
  {
    "name": "โรงพยาบาลสุไหงปาดี",
    "latitude": 6.08193,
    "longitude": 101.877471,
    "phone": "073 651 169"
  },
  {
    "name": "โรงพยาบาลสุคิริน",
    "latitude": 5.942491,
    "longitude": 101.777601,
    "phone": "073 656 178"
  },
  {
    "name": "โรงพยาบาลแว้ง",
    "latitude": 5.942592,
    "longitude": 101.886863,
    "phone": "073 659 008"
  },
  {
    "name": "โรงพยาบาลสุไหงโก-ลก",
    "latitude": 6.027096,
    "longitude": 101.971257,
    "phone": "073 517 500"
  }
]